[
    {
        "name":"Bravo LT",
        "description":"Lorem ipsum dolor sit amet, consectetur adipiscing elit. Mauris venenatis purus ac mauris vehicula, tristique tempor tellus lobortis. Fusce semper eu elit ac elementum. Aenean tincidunt venenatis nisl, at egestas massa ullamcorper at. Maecenas dui ex, egestas at velit eu, dictum tempor dolor. Donec varius ac nisi sit amet ultrices.",
        "end":null,
        "location":{
            "address":"40 Monroe Center St NW",
            "city":"Grand Rapids",
            "remote":true,
            "state":"Michigan",
            "zip":"49503"
        },
        "project":"Gordon Ordering",
        "role":"Senior Software Developer",
        "start":{
            "month":4,
            "year":2021
        },
        "title":"Senior Software Developer",
        "type":"FULLTIME"
    },
    {
        "name":"Verizon",
        "description":"Lorem ipsum dolor sit amet, consectetur adipiscing elit. Mauris venenatis purus ac mauris vehicula, tristique tempor tellus lobortis. Fusce semper eu elit ac elementum. Aenean tincidunt venenatis nisl, at egestas massa ullamcorper at. Maecenas dui ex, egestas at velit eu, dictum tempor dolor. Donec varius ac nisi sit amet ultrices.",
        "end":{
            "month":"4",
            "year":"2021"
        },
        "location":{
            "address":"7701 E Telecom Pkwy",
            "city":"Temple Terrace",
            "remote":true,
            "state":"Florida",
            "zip":"33637"
        },
        "project":"Network Planning Platform",
        "role":"Cloud Architect",
        "start":{
            "month":3,
            "year":2020
        },
        "title":"MTS-III",
        "type":"FULLTIME"
    },
    {
        "name":"Verizon",
        "description":"Lorem ipsum dolor sit amet, consectetur adipiscing elit. Mauris venenatis purus ac mauris vehicula, tristique tempor tellus lobortis. Fusce semper eu elit ac elementum. Aenean tincidunt venenatis nisl, at egestas massa ullamcorper at. Maecenas dui ex, egestas at velit eu, dictum tempor dolor. Donec varius ac nisi sit amet ultrices.",
        "end":{
            "month":3,
            "year":2020
        },
        "location":{
            "address":"7701 E Telecom Pkwy",
            "city":"Temple Terrace",
            "remote":true,
            "state":"Florida",
            "zip":"33637"
        },
        "project":"Network Planning Platform",
        "role":"Software Developer",
        "start":{
            "month":11,
            "year":2019
        },
        "title":"MTS-III",
        "type":"FULLTIME"
    },
    {
        "name":"Verizon",
        "description":"Lorem ipsum dolor sit amet, consectetur adipiscing elit. Mauris venenatis purus ac mauris vehicula, tristique tempor tellus lobortis. Fusce semper eu elit ac elementum. Aenean tincidunt venenatis nisl, at egestas massa ullamcorper at. Maecenas dui ex, egestas at velit eu, dictum tempor dolor. Donec varius ac nisi sit amet ultrices.",
        "end":{
            "month":11,
            "year":2019
        },
        "location":{
            "address":"7701 E Telecom Pkwy",
            "city":"Temple Terrace",
            "remote":true,
            "state":"Florida",
            "zip":"33637"
        },
        "project":"Service Qualification 5G",
        "role":"Java Developer",
        "start":{
            "month":12,
            "year":2017
        },
        "title":"MTS-II",
        "type":"FULLTIME"
    },
    {
        "name":"Verizon",
        "description":"Lorem ipsum dolor sit amet, consectetur adipiscing elit. Mauris venenatis purus ac mauris vehicula, tristique tempor tellus lobortis. Fusce semper eu elit ac elementum. Aenean tincidunt venenatis nisl, at egestas massa ullamcorper at. Maecenas dui ex, egestas at velit eu, dictum tempor dolor. Donec varius ac nisi sit amet ultrices.",
        "end":{
            "month":12,
            "year":2017
        },
        "location":{
            "address":"7701 E Telecom Pkwy",
            "city":"Temple Terrace",
            "remote":false,
            "state":"Florida",
            "zip":"33637"
        },
        "project":"VZT Nautilus",
        "role":"Java Developer",
        "start":{
            "month":8,
            "year":2017
        },
        "title":"MTS-II",
        "type":"FULLTIME"
    },
    {
        "name":"Verizon",
        "description":"Lorem ipsum dolor sit amet, consectetur adipiscing elit. Mauris venenatis purus ac mauris vehicula, tristique tempor tellus lobortis. Fusce semper eu elit ac elementum. Aenean tincidunt venenatis nisl, at egestas massa ullamcorper at. Maecenas dui ex, egestas at velit eu, dictum tempor dolor. Donec varius ac nisi sit amet ultrices.",
        "end":{
            "month":8,
            "year":2017
        },
        "location":{
            "address":"7701 E Telecom Pkwy",
            "city":"Temple Terrace",
            "remote":false,
            "state":"Florida",
            "zip":"33637"
        },
        "project":"VZW Nautilus",
        "role":"Java Developer Contract",
        "start":{
            "month":11,
            "year":2016
        },
        "title":"Contractor",
        "type":"CONTRACT"
    },
    {
        "name":"Revature",
        "description":"Lorem ipsum dolor sit amet, consectetur adipiscing elit. Mauris venenatis purus ac mauris vehicula, tristique tempor tellus lobortis. Fusce semper eu elit ac elementum. Aenean tincidunt venenatis nisl, at egestas massa ullamcorper at. Maecenas dui ex, egestas at velit eu, dictum tempor dolor. Donec varius ac nisi sit amet ultrices.",
        "end":{
            "month":11,
            "year":2016
        },
        "location":{
            "address":"11730 Plaza America Dr",
            "city":"Reston",
            "remote":false,
            "state":"Virginia",
            "zip":"20190"
        },
        "project":"Bootcamp",
        "role":"Java Developer",
        "start":{
            "month":7,
            "year":2016
        },
        "title":"Trainee",
        "type":"CONTRACT"
    }
]